{"countries":["BA","BE","BG","BR","BY","CA","CH","CZ","DE","DK","EE","ES","GB","GR","IE","IT","LT","LV","MA","NL","NO","PE","PL","PT","RO","RS","RU","SE","SI","TR","UA","US","XK"],"country_flags":["🇧🇦","🇧🇪","🇧🇬","🇧🇷","🇧🇾","🇨🇦","🇨🇭","🇨🇿","🇩🇪","🇩🇰","🇪🇪","🇪🇸","🇬🇧","🇬🇷","🇮🇪","🇮🇹","🇱🇹","🇱🇻","🇲🇦","🇳🇱","🇳🇴","🇵🇪","🇵🇱","🇵🇹","🇷🇴","🇷🇸","🇷🇺","🇸🇪","🇸🇮","🇹🇷","🇺🇦","🇺🇸","🇽🇰"],"cities":[{"name":"Agadir","country":"MA","lat":30.4205,"lng":-9.5839},{"name":"Amsterdam","country":"NL","lat":52.3731,"lng":4.8925},{"name":"Antwerp","country":"BE","lat":51.2211,"lng":4.3997},{"name":"Athens","country":"GR","lat":37.9756,"lng":23.7348},{"name":"Atlanta","country":"US","lat":33.7545,"lng":-84.3898},{"name":"Barcelona","country":"ES","lat":41.3826,"lng":2.1771},{"name":"Belgrade","country":"RS","lat":44.8178,"lng":20.4569},{"name":"Bergen","country":"NO","lat":60.3943,"lng":5.3259},{"name":"Berlin","country":"DE","lat":52.5174,"lng":13.3951},{"name":"Bern","country":"CH","lat":46.9485,"lng":7.4522},{"name":"Brno","country":"CZ","lat":49.1922,"lng":16.6113},{"name":"Broomfield","country":"US","lat":39.9404,"lng":-105.0521},{"name":"Brussels","country":"BE","lat":50.8467,"lng":4.3525},{"name":"Brühl","country":"DE","lat":50.8291,"lng":6.9037},{"name":"Bucharest","country":"RO","lat":44.4361,"lng":26.1027},{"name":"Bydgoszcz","country":"PL","lat":53.122,"lng":18.0003},{"name":"Campobasso","country":"IT","lat":41.5598,"lng":14.6603},{"name":"Chicago","country":"US","lat":41.8756,"lng":-87.6244},{"name":"Cluj-Napoca","country":"RO","lat":46.7694,"lng":23.59},{"name":"Coimbra","country":"PT","lat":40.2112,"lng":-8.4295},{"name":"Cologne","country":"DE","lat":50.9384,"lng":6.96},{"name":"Copenhagen","country":"DK","lat":55.6867,"lng":12.5701},{"name":"Dublin","country":"IE","lat":53.3494,"lng":-6.2606},{"name":"Düsseldorf","country":"DE","lat":51.2254,"lng":6.7763},{"name":"Düzce","country":"TR","lat":40.8392,"lng":31.1595},{"name":"Ede","country":"NL","lat":52.0717,"lng":5.7455},{"name":"Gothenburg","country":"SE","lat":57.7072,"lng":11.967},{"name":"Grimstad","country":"NO","lat":58.284,"lng":8.7128},{"name":"Hamburg","country":"DE","lat":53.5502,"lng":10.0013},{"name":"Iași","country":"RO","lat":47.1616,"lng":27.5838},{"name":"Istanbul","country":"TR","lat":41.0064,"lng":28.9759},{"name":"Kansas City","country":"US","lat":39.1001,"lng":-94.5781},{"name":"Kraków","country":"PL","lat":50.0619,"lng":19.9369},{"name":"Kyiv","country":"UA","lat":50.45,"lng":30.5241},{"name":"Las Vegas","country":"US","lat":36.1674,"lng":-115.1484},{"name":"Lima","country":"PE","lat":-12.046,"lng":-77.0306},{"name":"London","country":"GB","lat":51.5074,"lng":-0.1278},{"name":"Lone Tree","country":"US","lat":39.5364,"lng":-104.9042},{"name":"Lublin","country":"PL","lat":51.2506,"lng":22.5701},{"name":"Ludwigsburg","country":"DE","lat":48.8954,"lng":9.1895},{"name":"Madison","country":"US","lat":43.0747,"lng":-89.3842},{"name":"Madrid","country":"ES","lat":40.4168,"lng":-3.7035},{"name":"Mainz","country":"DE","lat":49.9995,"lng":8.2736},{"name":"Marrakesh","country":"MA","lat":31.6258,"lng":-7.9892},{"name":"Minsk","country":"BY","lat":53.9025,"lng":27.5618},{"name":"Moscow","country":"RU","lat":55.7505,"lng":37.6175},{"name":"New York","country":"US","lat":40.7127,"lng":-74.006},{"name":"Oslo","country":"NO","lat":59.9133,"lng":10.739},{"name":"Pittsburgh","country":"US","lat":40.4407,"lng":-80.0026},{"name":"Portorož","country":"SI","lat":45.5146,"lng":13.591},{"name":"Prague","country":"CZ","lat":50.0875,"lng":14.4213},{"name":"Prishtina","country":"XK","lat":42.6639,"lng":21.1641},{"name":"Riga","country":"LV","lat":56.9494,"lng":24.1052},{"name":"Rust","country":"DE","lat":48.2659,"lng":7.7263},{"name":"San Francisco","country":"US","lat":37.7879,"lng":-122.4075},{"name":"Sarajevo","country":"BA","lat":43.8571,"lng":18.4126},{"name":"Sofia","country":"BG","lat":42.6977,"lng":23.3217},{"name":"Southampton","country":"GB","lat":50.9025,"lng":-1.4042},{"name":"St.Petersburg","country":"RU","lat":59.9387,"lng":30.3162},{"name":"Stavanger","country":"NO","lat":58.97,"lng":5.7318},{"name":"Stockholm","country":"SE","lat":59.3251,"lng":18.0711},{"name":"São Paulo","country":"BR","lat":-23.5507,"lng":-46.6334},{"name":"Tallinn","country":"EE","lat":59.4372,"lng":24.7573},{"name":"Thessaloniki","country":"GR","lat":40.6403,"lng":22.9353},{"name":"Toronto","country":"CA","lat":43.6535,"lng":-79.3839},{"name":"Trabzon","country":"TR","lat":41.0055,"lng":39.7301},{"name":"Trondheim","country":"NO","lat":63.4304,"lng":10.3952},{"name":"Tucson","country":"US","lat":32.2229,"lng":-110.9748},{"name":"Utrecht","country":"NL","lat":52.0907,"lng":5.1216},{"name":"Vilnius","country":"LT","lat":54.687,"lng":25.2829},{"name":"Wrocław","country":"PL","lat":51.109,"lng":17.0327},{"name":"Århus","country":"DK","lat":56.1496,"lng":10.2134}],"stats":{"total_events":247,"total_countries":33,"total_cities":72}}
